{
  "tracks": [
    {
      "id": "tamiya_circuit_tokyo",
      "name": "タミヤサーキット",
      "latitude": 35.6762,
      "longitude": 139.6503,
      "radius": 1000,
      "prefecture": "東京都",
      "address": "東京都新宿区",
      "type": "indoor",
      "description": "タミヤ公式サーキット",
      "website": "https://www.tamiya.com",
      "phone": "03-1234-5678"
    },
    {
      "id": "yokomo_drift_meeting",
      "name": "ヨコモドリフトミーティング",
      "latitude": 35.6895,
      "longitude": 139.6917,
      "radius": 800,
      "prefecture": "東京都",
      "address": "東京都渋谷区",
      "type": "indoor",
      "description": "ヨコモ主催のドリフトイベント会場",
      "website": "https://www.yokomo.com",
      "phone": "03-2345-6789"
    },
    {
      "id": "osaka_rc_circuit",
      "name": "大阪RCサーキット",
      "latitude": 34.6937,
      "longitude": 135.5023,
      "radius": 1200,
      "prefecture": "大阪府",
      "address": "大阪府大阪市",
      "type": "outdoor",
      "description": "関西最大級の屋外RCサーキット",
      "website": "https://osaka-rc.com",
      "phone": "06-1234-5678"
    },
    {
      "id": "nagoya_rc_park",
      "name": "名古屋RCパーク",
      "latitude": 35.1815,
      "longitude": 136.9066,
      "radius": 1000,
      "prefecture": "愛知県",
      "address": "愛知県名古屋市",
      "type": "outdoor",
      "description": "中部地方の人気RCサーキット",
      "website": "https://nagoya-rc.com",
      "phone": "052-123-4567"
    },
    {
      "id": "fukuoka_model_circuit",
      "name": "福岡モデルサーキット",
      "latitude": 33.5904,
      "longitude": 130.4017,
      "radius": 900,
      "prefecture": "福岡県",
      "address": "福岡県福岡市",
      "type": "indoor",
      "description": "九州エリアの屋内RCサーキット",
      "website": "https://fukuoka-model.com",
      "phone": "092-123-4567"
    },
    {
      "id": "sapporo_rc_club",
      "name": "札幌RCクラブ",
      "latitude": 43.0642,
      "longitude": 141.3469,
      "radius": 1500,
      "prefecture": "北海道",
      "address": "北海道札幌市",
      "type": "indoor",
      "description": "北海道最大のRCクラブ",
      "website": "https://sapporo-rc.com",
      "phone": "011-123-4567"
    },
    {
      "id": "sendai_model_car_circuit",
      "name": "仙台モデルカーサーキット",
      "latitude": 38.2682,
      "longitude": 140.8694,
      "radius": 1100,
      "prefecture": "宮城県",
      "address": "宮城県仙台市",
      "type": "outdoor",
      "description": "東北地方の屋外RCサーキット",
      "website": "https://sendai-model.com",
      "phone": "022-123-4567"
    },
    {
      "id": "hiroshima_rc_field",
      "name": "広島RCフィールド",
      "latitude": 34.3853,
      "longitude": 132.4553,
      "radius": 1000,
      "prefecture": "広島県",
      "address": "広島県広島市",
      "type": "outdoor",
      "description": "中国地方の人気RCフィールド",
      "website": "https://hiroshima-rc.com",
      "phone": "082-123-4567"
    },
    {
      "id": "shizuoka_hobby_square",
      "name": "静岡ホビースクエア",
      "latitude": 34.9756,
      "longitude": 138.3831,
      "radius": 800,
      "prefecture": "静岡県",
      "address": "静岡県静岡市",
      "type": "indoor",
      "description": "プラモデルの聖地静岡のRCサーキット",
      "website": "https://shizuoka-hobby.com",
      "phone": "054-123-4567"
    },
    {
      "id": "kanazawa_rc_park",
      "name": "金沢RCパーク",
      "latitude": 36.5944,
      "longitude": 136.6256,
      "radius": 1200,
      "prefecture": "石川県",
      "address": "石川県金沢市",
      "type": "outdoor",
      "description": "北陸地方の屋外RCパーク",
      "website": "https://kanazawa-rc.com",
      "phone": "076-123-4567"
    }
  ]
}